Crazyflie name,QTM packet timestamp (s),x (m),y (m),z (m),yaw (째),vx (m/s),vy (m/s),vz (m/s),vx_c (m/s),vy_c (m/s),vz_c (m/s),roll_c (째),pitch_c (째),yaw_rate_c (째/s),thrust_c (PWM)
cf1,6945.88,0.8038383178710937,-0.7643709716796875,0.0030079708099365237,0.03606843203306198,-4.1198730467917335e-05,-1.52587890625e-05,-0.00021649599074844886,None,None,None,None,None,None,None
cf2,6945.88,-0.7173355102539063,-0.761179931640625,-0.004543564319610596,-0.054210346192121506,0.00032043457030417333,-0.00010681152343472444,-0.0010262846946492335,None,None,None,None,None,None,None
cf3,6945.88,-0.7098141479492187,0.7284589233398437,0.011013405799865723,0.037756629288196564,-0.0001892089843705591,0.0002822875976493111,0.0002947807311947274,None,None,None,None,None,None,None
cf4,6945.88,0.7984348754882813,0.7463477172851563,0.018449548721313477,-0.18421955406665802,0.0003479003906188938,7.171630859291734e-05,-0.0002653121948184421,None,None,None,None,None,None,None
cf1,6945.92,0.8038393554687501,-0.7643604125976563,0.003002532958984375,0.038611218333244324,2.5939941408782696e-05,0.00026397705077975815,-0.00013594627380383997,None,None,None,None,None,None,None
cf2,6945.92,-0.717367431640625,-0.761161376953125,-0.0044611053466796875,-0.053907737135887146,-0.0007980346679682989,0.0004638671875005551,0.002061474323274581,None,None,None,None,None,None,None
cf3,6945.92,-0.7098216552734375,0.7284634399414063,0.011006033897399903,0.04024221748113632,-0.00018768310547107454,0.00011291503906340206,-0.00018429756164566502,None,None,None,None,None,None,None
cf4,6945.92,0.7984405517578125,0.7463672485351562,0.018443252563476564,-0.18422435224056244,0.00014190673827975815,0.00048828125,-0.00015740394592296975,None,None,None,None,None,None,None
cf1,6945.96,0.803844970703125,-0.76435791015625,0.003042154788970947,0.038611218333244324,0.00014038085937319588,6.256103515795002e-05,0.0009905457496652058,None,None,None,None,None,None,None
cf2,6945.96,-0.7173145751953125,-0.761167724609375,-0.00452186918258667,-0.057049866765737534,0.0013214111328136795,-0.00015869140624916734,-0.0015190958976759482,None,None,None,None,None,None,None
cf3,6945.96,-0.7098255615234376,0.7284530639648438,0.011048751831054688,0.04024221748113632,-9.765625000055512e-05,-0.00025939941406284694,0.0010679483413705922,None,None,None,None,None,None,None
cf4,6945.96,0.798441650390625,0.7463455200195312,0.018471227645874024,-0.18838778138160706,2.746582031256939e-05,-0.0005432128906251388,0.0006993770599371339,None,None,None,None,None,None,None
cf1,6946.0,0.8039623413085938,-0.764318115234375,0.0031819329261779787,0.04311786964535713,0.0029342651367224625,0.0009948730468759715,0.0034944534301789643,None,None,None,None,None,None,None
cf2,6946.0,-0.717328857421875,-0.7612774047851563,-0.004223584651947021,0.04182618111371994,-0.00035705566406340203,-0.0027420043945344764,0.007457113265998001,None,None,None,None,None,None,None
cf3,6946.0,-0.7098461303710938,0.7284832763671875,0.011147946357727052,0.04279204457998276,-0.0005142211914060072,0.0007553100585928826,0.0024798631668113574,None,None,None,None,None,None,None
cf4,6946.0,0.798422607421875,0.7463490600585938,0.01856591796875,-0.22002358734607697,-0.00047607421875027754,8.850097656395717e-05,0.002367258071901588,None,None,None,None,None,None,None
cf1,6946.04,0.8041904296875,-0.7640938110351563,0.003662108421325684,0.0835953876376152,0.00570220947266017,0.00560760498047274,0.012004387378703548,None,None,None,None,None,None,None
cf2,6946.04,-0.7175771484375,-0.7613580322265625,-0.0021018879413604737,0.04182618111371994,-0.00620727539062958,-0.00201568603515795,0.053042417764711934,None,None,None,None,None,None,None
cf3,6946.04,-0.7100039672851562,0.7283798217773437,0.012055109977722168,0.10006619244813919,-0.003945922851565068,-0.002586364746095658,0.022679090499898545,None,None,None,None,None,None,None
cf4,6946.04,0.7984896240234375,0.7462332763671875,0.019263999938964844,-0.15029865503311157,0.0016754150390639571,-0.0028945922851601703,0.017452049255386928,None,None,None,None,None,None,None
cf1,6946.08,0.8044475097656251,-0.7636653442382813,0.006533147811889649,0.2821792960166931,0.00642700195313291,0.010711669921885408,0.0717759847641644,None,None,None,None,None,None,None
cf2,6946.08,-0.7182269287109375,-0.76145703125,0.0066070156097412115,0.34031543135643005,-0.01624450683595325,-0.002474975585938818,0.21772258877774014,None,None,None,None,None,None,None
cf3,6946.08,-0.709855224609375,0.7293994750976562,0.015335040092468262,-0.21601985394954681,0.0037185668945344764,0.025491333007835883,0.0819982528687269,None,None,None,None,None,None,None
cf4,6946.08,0.79887353515625,0.7456011352539063,0.022232772827148438,-0.15029865503311157,0.009597778320322561,-0.01580352783204558,0.07421932220465735,None,None,None,None,None,None,None
cf1,6946.12,0.8045343627929687,-0.763367919921875,0.014140811920166016,0.8385047912597656,0.002171325683593993,0.007435607910162391,0.19019160270708216,None,None,None,None,None,None,None
cf2,6946.12,-0.719642578125,-0.7611409912109375,0.024403953552246095,0.7640342712402344,-0.035391235351593935,0.007901000976569508,0.4449234485630268,None,None,None,None,None,None,None
cf3,6946.12,-0.7101481323242188,0.7318318481445313,0.024924577713012697,-0.40735363960266113,-0.007322692871101764,0.06080932617193148,0.23973844051382892,None,None,None,None,None,None,None
cf4,6946.12,0.7996298828125,0.7446678466796876,0.029578969955444335,0.24417655169963837,0.01890869140626693,-0.023332214355488837,0.18365492820756446,None,None,None,None,None,None,None
cf1,6946.16,0.8044898681640625,-0.7632486572265625,0.027563350677490234,0.8385047912597656,-0.0011123657226562848,0.00298156738281479,0.33556346893341066,None,None,None,None,None,None,None
cf2,6946.16,-0.7219548950195313,-0.7604885253906251,0.05117877197265625,1.3017030954360962,-0.05780792236333416,0.016311645507825337,0.6693704605108627,None,None,None,None,None,None,None
cf3,6946.16,-0.7107755126953125,0.7362052001953125,0.0414454460144043,-0.40735363960266113,-0.01568450927735593,0.10933380126963106,0.41302170753516576,None,None,None,None,None,None,None
cf4,6946.16,0.8009104614257813,0.7430068969726563,0.041641849517822266,0.024957895278930664,0.03201446533206001,-0.04152374267581862,0.30157198905972254,None,None,None,None,None,None,None
cf1,6946.2,0.8042817993164063,-0.763137451171875,0.045616260528564455,1.301012635231018,-0.005201721191410448,0.002780151367190206,0.451322746277266,None,None,None,None,None,None,None
cf2,6946.2,-0.7250173950195312,-0.7596028442382813,0.08589962768554688,1.3911669254302979,-0.07656250000006884,0.02214202880861453,0.868021392823055,None,None,None,None,None,None,None
cf3,6946.2,-0.7115619506835937,0.7428056640625,0.06385652542114258,-0.68259596824646,-0.019660949707049465,0.1650115966798373,0.5602769851689664,None,None,None,None,None,None,None
cf4,6946.2,0.8025480346679688,0.7410194702148437,0.057975997924804686,-0.7639957070350647,0.04093933105472462,-0.049685668945360306,0.4083537101749319,None,None,None,None,None,None,None
cf1,6946.24,0.803773193359375,-0.7632456665039062,0.06705368041992188,1.5267342329025269,-0.012715148925793635,-0.002705383300782534,0.535935497284423,None,None,None,None,None,None,None
cf2,6946.24,-0.728465576171875,-0.7587095336914063,0.1262451629638672,1.3911669254302979,-0.08620452880867338,0.022332763671895954,1.0086383819589255,None,None,None,None,None,None,None
cf3,6946.24,-0.7127811279296875,0.7503927001953126,0.09323426818847656,-0.9176694750785828,-0.030479431152372026,0.18967590332048576,0.7344435691840177,None,None,None,None,None,None,None
cf4,6946.24,0.8045219116210938,0.7387039794921875,0.07735938262939453,-0.7639957070350647,0.0493469238281701,-0.05788726806645874,0.4845846176151868,None,None,None,None,None,None,None
cf1,6946.28,0.803040283203125,-0.7637164306640625,0.08987812805175781,1.6329206228256226,-0.018322753906266375,-0.011769104003916554,0.5706111907964172,None,None,None,None,None,None,None
cf2,6946.28,-0.7318737182617188,-0.7583788452148438,0.17006681823730468,1.302798867225647,-0.08520355224617115,0.008267211914069508,1.0955413818369335,None,None,None,None,None,None,None
cf3,6946.28,-0.7140993041992187,0.7579603271484375,0.12820054626464844,-1.2039070129394531,-0.03295440673831084,0.1891906738282961,0.874156951905092,None,None,None,None,None,None,None
cf4,6946.28,0.8064664916992188,0.73652197265625,0.09836280822753907,-1.76898992061615,0.0486145019531701,-0.05455017089848711,0.5250856399540911,None,None,None,None,None,None,None
cf1,6946.32,0.8022151489257813,-0.7643633422851562,0.11294474029541016,1.822831392288208,-0.020628356933612868,-0.016172790527358705,0.5766653060918332,None,None,None,None,None,None,None
cf2,6946.32,-0.7351718139648438,-0.7580772705078125,0.21629786682128907,1.1055737733840942,-0.08245239257820008,0.007539367675789195,1.1557762146006607,None,None,None,None,None,None,None
cf3,6946.32,-0.7154723510742188,0.7641842651367188,0.16767477416992188,-1.2603458166122437,-0.03432617187503275,0.1555984497071727,0.9868556976327335,None,None,None,None,None,None,None
cf4,6946.32,0.8082118530273438,0.7343986206054688,0.11975912475585938,-2.8014578819274902,0.043634033203163995,-0.05308380126957778,0.5349079132084944,None,None,None,None,None,None,None
cf1,6946.36,0.801300048828125,-0.7651785278320312,0.1351798095703125,1.822831392288208,-0.022877502441427656,-0.02037963867189318,0.5558767318730642,None,None,None,None,None,None,None
cf2,6946.36,-0.7380814208984375,-0.7580260620117187,0.26258837890625003,0.9259394407272339,-0.07274017333991033,0.0012802124023448256,1.1572628021250766,None,None,None,None,None,None,None
cf3,6946.36,-0.7167534790039063,0.7684785766601563,0.21020272827148437,-1.2603458166122437,-0.032028198242216296,0.10735778808603541,1.063198852540029,None,None,None,None,None,None,None
cf4,6946.36,0.8095554809570312,0.7324088745117188,0.14054052734375,-3.6095242500305176,0.03359069824221685,-0.0497436523437958,0.5195350646977379,None,None,None,None,None,None,None
cf1,6946.4,0.8002452392578125,-0.7662310791015625,0.15570559692382813,2.0320229530334473,-0.02637023925783533,-0.026313781738306403,0.5131446838383573,None,None,None,None,None,None,None
cf2,6946.4,-0.7406024780273438,-0.758349365234375,0.30794708251953123,0.7895407676696777,-0.06302642822271402,-0.008082580566414335,1.1339675903330615,None,None,None,None,None,None,None
cf3,6946.4,-0.717870361328125,0.7709064331054688,0.2539303131103516,-1.1649397611618042,-0.027922058105492725,0.06069641113286808,1.0931896209726746,None,None,None,None,None,None,None
cf4,6946.4,0.8106671142578126,0.730677001953125,0.16007493591308594,-4.228744029998779,0.0277908325195589,-0.04329681396488313,0.48836021423384274,None,None,None,None,None,None,None
cf1,6946.44,0.7991378784179688,-0.7674864501953125,0.17429513549804687,2.1973819732666016,-0.027684020996118972,-0.03138427734377748,0.4647384643558913,None,None,None,None,None,None,None
cf2,6946.44,-0.7426793212890626,-0.7587977905273438,0.35088836669921875,0.7895407676696777,-0.051921081543016036,-0.01121063232422857,1.073532104493164,None,None,None,None,None,None,None
cf3,6946.44,-0.7187041015625,0.7713369140625,0.29709500122070315,-1.1566194295883179,-0.020843505859393735,0.01076202392579086,1.0791172027597706,None,None,None,None,None,None,None
cf4,6946.44,0.8113448486328125,0.7291583251953125,0.17766658020019532,-4.228744029998779,0.016943359375014434,-0.03796691894534643,0.4397911071781345,None,None,None,None,None,None,None
cf1,6946.48,0.7982203979492187,-0.7689489135742188,0.19093923950195313,2.2970023155212402,-0.022937011718772483,-0.036561584472691255,0.41610260009803485,None,None,None,None,None,None,None
cf2,6946.48,-0.7440813598632813,-0.7595902099609375,0.3909030456542969,0.6668691635131836,-0.03505096435549994,-0.019810485839862033,1.0003669738778638,None,None,None,None,None,None,None
cf3,6946.48,-0.7190037231445313,0.7693441772460937,0.3376999206542969,-1.2627825736999512,-0.007490539550790305,-0.04981842041020347,1.0151229858407667,None,None,None,None,None,None,None
cf4,6946.48,0.811676025390625,0.7280205688476563,0.19307505798339844,-4.697596549987793,0.008279418945319231,-0.02844390869143154,0.3852119445804283,None,None,None,None,None,None,None
cf1,6946.5199999999995,0.7971469116210937,-0.7704625244140625,0.20514552307128905,2.343170404434204,-0.026837158203149008,-0.037840270996126746,0.35515708923372113,None,None,None,None,None,None,None
cf2,6946.5199999999995,-0.7449104003906251,-0.7605099487304687,0.42743927001953125,0.5345695614814758,-0.02072601318361342,-0.02299346923830141,0.9134056091316894,None,None,None,None,None,None,None
cf3,6946.5199999999995,-0.719259033203125,0.7660408935546875,0.3763573608398438,-1.2645456790924072,-0.006382751464848156,-0.08258209228523011,0.9664360046395515,None,None,None,None,None,None,None
cf4,6946.5199999999995,0.8115408935546875,0.72715673828125,0.2062310028076172,-4.983074188232422,-0.003378295898440484,-0.021595764160176268,0.3288986206057679,None,None,None,None,None,None,None
cf1,6946.5599999999995,0.7961586303710938,-0.7720263061523438,0.2172520294189453,2.343170404434204,-0.024707031250021095,-0.03909454345706834,0.30266265869168163,None,None,None,None,None,None,None
cf2,6946.5599999999995,-0.7452384033203125,-0.7616039428710938,0.4601394958496094,0.39770910143852234,-0.008200073242194647,-0.02734985351565123,0.8175056457526971,None,None,None,None,None,None,None
cf3,6946.5599999999995,-0.7193234252929688,0.7613817749023437,0.4115588073730469,-1.2645456790924072,-0.0016098022460956582,-0.11647796630870114,0.8800361633308783,None,None,None,None,None,None,None
cf4,6946.5599999999995,0.8110601806640625,0.7266323852539063,0.2170209503173828,-5.105907917022705,-0.012017822265636241,-0.013108825683606206,0.26974868774438565,None,None,None,None,None,None,None
cf1,6946.599999999999,0.795226318359375,-0.7736314086914062,0.22728883361816407,2.3619821071624756,-0.02330780029299217,-0.04012756347659727,0.2509201049806973,None,None,None,None,None,None,None
cf2,6946.599999999999,-0.7450687255859375,-0.7627941284179688,0.4888470153808594,0.26443013548851013,0.004241943359379857,-0.02975463867190206,0.7176879882819028,None,None,None,None,None,None,None
cf3,6946.599999999999,-0.7190579223632813,0.7554862060546875,0.44302371215820313,-1.1923013925552368,0.006637573242194092,-0.1473892211915387,0.7866226196296213,None,None,None,None,None,None,None
cf4,6946.599999999999,0.8102969360351563,0.7260723266601563,0.22549638366699218,-5.1211161613464355,-0.019081115722672383,-0.014001464843761935,0.21188583374042705,None,None,None,None,None,None,None
cf1,6946.639999999999,0.79439501953125,-0.7752846069335938,0.23569207763671876,2.3020036220550537,-0.020782470703142347,-0.04132995605472684,0.2100811004640583,None,None,None,None,None,None,None
cf2,6946.639999999999,-0.7443992309570313,-0.7640241088867188,0.5135867919921875,0.26443013548851013,0.016737365722670164,-0.030749511718778034,0.6184944152837648,None,None,None,None,None,None,None
cf3,6946.639999999999,-0.7186055297851562,0.7485433349609375,0.47076480102539064,-1.0949022769927979,0.011309814453135687,-0.1735717773439085,0.6935272216803186,None,None,None,None,None,None,None
cf4,6946.639999999999,0.8092856445312501,0.7261221923828125,0.23237966918945313,-5.1211161613464355,-0.02528228759767849,0.0012466430664060072,0.17208213806168032,None,None,None,None,None,None,None
cf1,6946.679999999999,0.7936624755859375,-0.77684033203125,0.2427322692871094,2.25165057182312,-0.01831359863282978,-0.03889312744144098,0.17600479125992585,None,None,None,None,None,None,None
cf2,6946.679999999999,-0.7433091430664063,-0.7652723388671875,0.5345921630859375,0.1549537181854248,0.027252197265650674,-0.031205749511745776,0.5251342773442277,None,None,None,None,None,None,None
cf3,6946.679999999999,-0.7183942260742188,0.7408103637695312,0.4949881591796875,-0.9496203660964966,0.005282592773441594,-0.19332427978533226,0.6055839538579728,None,None,None,None,None,None,None
cf4,6946.679999999999,0.8080402221679688,0.726450439453125,0.23772459411621094,-5.088257789611816,-0.031135559082060567,0.008206176757820895,0.1336231231690668,None,None,None,None,None,None,None
cf1,6946.719999999999,0.7930325927734375,-0.7784318237304688,0.24873641967773438,2.214937448501587,-0.015747070312513878,-0.03978729248050605,0.1501037597657613,None,None,None,None,None,None,None
cf2,6946.719999999999,-0.7418199462890626,-0.7664964599609375,0.5520552368164062,0.09253420680761337,0.037229919433626746,-0.030603027343778587,0.4365768432621155,None,None,None,None,None,None,None
cf3,6946.719999999999,-0.7175136108398438,0.7325949096679688,0.515738037109375,-0.8079323768615723,0.022015380859394845,-0.2053863525392477,0.5187469482426599,None,None,None,None,None,None,None
cf4,6946.719999999999,0.8066641235351563,0.726951171875,0.2418341522216797,-4.993080139160156,-0.03440246582034421,0.012518310546885963,0.10273895263681239,None,None,None,None,None,None,None
cf1,6946.759999999999,0.7926188354492187,-0.7798615112304688,0.25382891845703126,2.214937448501587,-0.010343933105478846,-0.03574218750003109,0.12731246948253774,None,None,None,None,None,None,None
cf2,6946.759999999999,-0.7400328369140625,-0.7675933837890625,0.5665487670898438,0.04742151498794556,0.04467773437504163,-0.027423095703149564,0.36233825683626913,None,None,None,None,None,None,None
cf3,6946.759999999999,-0.7163917236328126,0.7241254272460937,0.5336002807617187,-0.8079323768615723,0.028047180175805847,-0.21173706054706914,0.4465560913089981,None,None,None,None,None,None,None
cf4,6946.759999999999,0.8051716918945313,0.7276867065429687,0.24497186279296876,-4.904491901397705,-0.03731079101565789,0.018388366699234673,0.07844276428229784,None,None,None,None,None,None,None
cf1,6946.799999999999,0.7922918701171875,-0.7812481079101563,0.2583922424316406,2.182889223098755,-0.00817413330078864,-0.034664916992220185,0.1140830993653374,0,0.007982317947978919,0.04160775756835938,None,None,None,None
cf2,6946.799999999999,-0.7380245361328125,-0.7686224975585938,0.5786296997070313,0.029945962131023407,0.05020751953129635,-0.025727844238305847,0.3020233154299611,0,0.005111881926084018,0.021370300292968714,None,None,None,None
cf3,6946.799999999999,-0.7154298095703125,0.7162047729492188,0.5498720092773438,-0.6887316107749939,0.024047851562522204,-0.19801635742205362,0.40679321289099707,None,None,None,None,None,None,None
cf4,6946.799999999999,0.8036409301757813,0.728584716796875,0.2475341491699219,-4.821415901184082,-0.038269042968784694,0.022450256347676268,0.06405715942388657,None,None,None,None,None,None,None
cf1,6946.839999999999,0.7921445922851562,-0.7824187622070312,0.2624651794433594,2.1579837799072266,-0.0036819458007853094,-0.029266357421899286,0.10182342529306239,0,0.012080135048570272,0.03753482055664059,None,None,None,None
cf2,6946.839999999999,-0.7358626708984375,-0.7694280395507813,0.5886300659179687,0.029945962131023407,0.054046630859424266,-0.020138549804706304,0.2500091552736642,0,0.0069771562922746905,0.011369934082031241,None,None,None,None
cf3,6946.839999999999,-0.7140054321289062,0.7080271606445313,0.56312890625,-0.5734179615974426,0.0356094360351907,-0.2044403076173734,0.3314224243167063,None,None,None,None,None,None,None
cf4,6946.839999999999,0.8021668090820313,0.7295658569335938,0.24970492553710938,-4.821415901184082,-0.03685302734378358,0.02452850341799217,0.05426940917973656,None,None,None,None,None,None,None
cf1,6946.88,0.7921263427734375,-0.7834796752929688,0.2659732666015625,2.14526629447937,-0.0004562377929573702,-0.02652282714786074,0.0877021789531634,0,0.0150380518754265,0.03402673339843748,None,None,None,None
cf2,6946.88,-0.7336843872070312,-0.7701024780273438,0.5965883178710938,0.044153328984975815,0.054457092283968035,-0.01686096191369335,0.19895629882378346,0,0.008039701062461511,0.0034116821289061905,None,None,None,None
cf3,6946.88,-0.7122846069335937,0.7003668212890625,0.5746347045898438,-0.49761494994163513,0.0430206298818727,-0.19150848388254071,0.2876449584898157,0,0,0.025365295410156197,None,None,None,None
cf4,6946.88,0.8008211059570313,0.7306858520507813,0.25174951171875,-4.721166133880615,-0.0336425781242667,0.027999877929076877,0.05111465453989943,None,None,None,None,None,None,None
cf1,6946.92,0.7920128173828125,-0.7842939453125,0.2682434387207031,2.14526629447937,-0.0028381347656284694,-0.02035675048829752,0.056754302978566644,0,0.01698259748667269,0.03175656127929688,None,None,None,None
cf2,6946.92,-0.7314840698242188,-0.7706358032226562,0.6023264770507812,0.09556199610233307,0.05500793457036142,-0.013333129882823671,0.14345397949231678,0,0.008592488724140418,-0.0023264770507812615,None,None,None,None
cf3,6946.92,-0.7106390991210938,0.6934540405273437,0.5847860107421875,-0.48368605971336365,0.04113769531253608,-0.17281951904312595,0.2537826538088238,0,0,0.015213989257812477,None,None,None,None
cf4,6946.92,0.7995426635742188,0.7318844604492187,0.2536542663574219,-4.606807708740234,-0.031961059570341434,0.029965209960963243,0.047618865966840854,None,None,None,None,None,None,None
cf1,6946.96,0.7921339721679688,-0.7851023559570313,0.27008609008789064,2.199389696121216,0.003028869628909893,-0.020210266113300852,0.046066284179730174,0,0.01877169214576451,0.02991390991210935,None,None,None,None
cf2,6946.96,-0.7293392944335938,-0.7708497314453125,0.6056876831054687,0.133994922041893,0.05361938476567288,-0.0053482055664126685,0.08403015136726348,0,0.008364453884480642,-0.005687683105468744,None,None,None,None
cf3,6946.96,-0.708827880859375,0.6873870849609375,0.5933665161132813,-0.48368605971336365,0.0452804565430116,-0.15167388916029395,0.21451263427753967,0,0,0.006633483886718694,None,None,None,None
cf4,6946.96,0.7985308227539063,0.7331873168945313,0.2556262817382813,-4.4950361251831055,-0.025296020507834773,0.03257141113284421,0.04930038452152967,0,-0.007174731785704543,0.04437371826171871,None,None,None,None
cf1,6947.0,0.7923719482421875,-0.785774658203125,0.2706962280273438,2.2633731365203857,0.005949401855473295,-0.016807556152358148,0.015253448486342297,0,0.020152094069331692,0.029303771972656212,None,None,None,None
cf2,6947.0,-0.727425048828125,-0.7709865722656251,0.6071580200195312,0.13986653089523315,0.0478561401367641,-0.0034210205078159,0.036758422851596154,0,0.008112819587042268,-0.007158020019531253,None,None,None,None
cf3,6947.0,-0.707171875,0.6822158203125,0.6001334228515625,-0.4996972978115082,0.04140014648441205,-0.12928161621105316,0.16917266845718323,0,0,-0.00013342285156248135,None,None,None,None
cf4,6947.0,0.7976793823242188,0.7344317626953125,0.2576954956054688,-4.406198024749756,-0.02128601074220797,0.031111145019558348,0.05173034667973461,0,-0.011200617653426576,0.042304504394531206,None,None,None,None
cf1,6947.04,0.7925674438476563,-0.7863646240234375,0.2704428405761719,2.255934476852417,0.004887390136725238,-0.014749145507827558,-0.006334686279302547,0,0.021281186484353575,0.029557159423828083,None,None,None,None
cf2,6947.04,-0.7257635498046875,-0.7709909057617188,0.6070747680664063,0.13986653089523315,0.0415374755859749,-0.0001083374023437153,-0.002081298828126249,0,0.0076940333753785185,-0.007074768066406278,None,None,None,None
cf3,6947.04,-0.7053945922851562,0.6780701904296875,0.6047466430664062,-0.5342435836791992,0.04443206787113507,-0.10364074707040749,0.11533050537119946,0,0,-0.004746643066406264,None,None,None,None
cf4,6947.04,0.7970317382812501,0.73572705078125,0.25963003540039065,-4.406198024749756,-0.016191101074231898,0.03238220214846657,0.04836349487309057,0,-0.014568346591644372,0.04036996459960934,None,None,None,None
cf1,6947.08,0.7927056274414063,-0.78687548828125,0.2693285827636719,2.2494397163391113,0.003454589843751943,-0.012771606445322561,-0.02785644531252581,-0.00027481613388305936,0.022208892867390098,0.030671417236328102,None,None,None,None
cf2,6947.08,-0.7243933715820313,-0.7708742065429688,0.6057353515625,0.09831874817609787,0.03425445556643543,0.002917480468753053,-0.03348541259768626,0,0.007137014537211193,-0.005735351562500046,None,None,None,None
cf3,6947.08,-0.7037537841796875,0.6748052978515625,0.6072207641601562,-0.5922181606292725,0.04102020263675577,-0.08162231445319952,0.06185302734380634,0,0,-0.007220764160156268,None,None,None,None
cf4,6947.08,0.79658349609375,0.7368351440429688,0.2610186157226563,-4.378469944000244,-0.011206054687511657,0.027702331542994944,0.03471450805667235,0,-0.017058740513799468,0.03898138427734371,None,None,None,None
cf1,6947.12,0.7928998413085938,-0.7872785034179688,0.26740225219726566,2.24752140045166,0.0048553466796929816,-0.0100753784179794,-0.04815826416019958,-0.0008679622554939834,0.02290937734309345,0.032597747802734334,None,None,None,None
cf2,6947.12,-0.7233079223632812,-0.770579833984375,0.6037799682617188,0.06424271315336227,0.027136230468776924,0.007359313964850932,-0.04888458251957611,0,0.006311715477581457,-0.00377996826171878,None,None,None,None
cf3,6947.12,-0.7022652587890625,0.6724210815429688,0.6079554443359375,-0.6161677837371826,0.03721313476565734,-0.05960540771489812,0.018367004394548355,0,0,-0.007955444335937534,None,None,None,None
cf4,6947.12,0.7963619384765626,0.7379658813476563,0.2616439208984375,-4.394847869873047,-0.005538940429691316,0.028268432617212964,0.0156326293945453,0,-0.019440715454176423,0.03835607910156247,None,None,None,None
cf1,6947.16,0.79299658203125,-0.7876013793945312,0.2651263427734375,2.24752140045166,0.0024185180664071174,-0.008071899414068398,-0.05689773559575574,-0.0011447759506585972,0.023455976458718525,0.03487365722656249,None,None,None,None
cf2,6947.16,-0.7225493774414062,-0.7702974243164062,0.6015916137695313,0.0015595321310684085,0.01896362304689207,0.007060241699225793,-0.05470886230473628,0,0.0056065312598966325,-0.0015916137695313193,None,None,None,None
cf3,6947.16,-0.7008521118164063,0.6708826904296875,0.6071469726562501,-0.6161677837371826,0.03532867431643876,-0.03845977783206612,-0.020211791992204638,0,0,-0.0071469726562500835,None,None,None,None
cf4,6947.16,0.7963125610351562,0.73889208984375,0.26132821655273436,-4.414161205291748,-0.0012344360351590603,0.0231552124023637,-0.007892608642586191,0,-0.02127686234411981,0.03867178344726563,None,None,None,None
cf1,6947.2,0.7932210693359375,-0.7879616088867187,0.2632082214355469,2.2387311458587646,0.005612182617192427,-0.009005737304695758,-0.04795303344730859,-0.0017873536852147285,0.024040061039040404,0.03679177856445309,None,None,None,None
cf2,6947.2,-0.7221690673828125,-0.7699404907226562,0.5992523803710937,-0.06739721447229385,0.009507751464852042,0.008923339843758048,-0.05848083496099211,0,0.0048245808570220716,0.0007476196289062376,None,None,None,None
cf3,6947.2,-0.6995912475585938,0.6702362670898437,0.6053643798828126,-0.650562047958374,0.03152160644534033,-0.01616058349610898,-0.04456481933597823,0,0,-0.0053643798828125755,None,None,None,None
cf4,6947.2,0.7964160766601562,0.739632568359375,0.2602071533203125,-4.398260593414307,0.0025878906250022204,0.018511962890641238,-0.02802658081057142,0,-0.022707597285511985,0.039792846679687466,None,None,None,None
cf1,6947.24,0.7931782836914063,-0.7880767211914063,0.26060723876953124,2.248433828353882,-0.0010696411132808683,-0.002877807617190761,-0.06502456665045066,-0.0016502911589454335,0.024233677657834532,0.039392761230468754,None,None,None,None
cf2,6947.24,-0.7220770263671875,-0.7696220092773438,0.5973560180664063,-0.06739721447229385,0.0023010253906268043,0.00796203613281812,-0.047409057617230174,0,0.0041641580691088795,0.00264398193359372,None,None,None,None
cf3,6947.24,-0.6984114379882813,0.6701746215820312,0.6027748413085937,-0.7254022359848022,0.029495239257839215,-0.0015411376953142347,-0.06473846435552992,0,0,-0.002774841308593734,None,None,None,None
cf4,6947.24,0.7966475830078125,0.7401812744140626,0.25842364501953125,-4.398260593414307,0.005787658691411003,0.013717651367202419,-0.0445877075195725,0,-0.023772703695276117,0.041576354980468744,None,None,None,None
cf1,6947.28,0.7931704711914063,-0.7880721435546875,0.25804083251953125,2.2689356803894043,-0.00019531250000111023,0.0001144409179699643,-0.06416015625005801,-0.001627694471905112,0.02422685809294964,0.04195916748046874,None,None,None,None
cf2,6947.28,-0.7221767578125,-0.7692841186523438,0.5954785766601562,-0.15944163501262665,-0.00249328613281479,0.008447265625007772,-0.04693603515629302,0,0.00348283719722644,0.004521423339843733,None,None,None,None
cf3,6947.28,-0.6973531494140626,0.6707887573242187,0.5998717651367188,-0.7968552112579346,0.026457214355492725,0.015353393554701309,-0.0725769042969387,0,0,0.00012823486328117362,None,None,None,None
cf4,6947.28,0.7970706176757812,0.74051611328125,0.25606292724609375,-4.346097946166992,0.010575866699229124,0.008370971679693537,-0.059017944335991,0,-0.02449395345862318,0.04393707275390624,None,None,None,None
cf1,6947.32,0.7931163940429687,-0.7879865112304688,0.2557464599609375,2.2689356803894043,-0.0013519287109393734,0.002140808105468299,-0.05735931396489645,-0.001475254882427674,0.024090521338171255,0.04425354003906251,None,None,None,None
cf2,6947.32,-0.7225100708007812,-0.7689940185546875,0.5940206298828126,-0.23021350800991058,-0.008332824707037808,0.007252502441413779,-0.036448669433625076,0,0.002912855443604356,0.00597937011718741,None,None,None,None
cf3,6947.32,-0.6965106201171876,0.6719056396484375,0.5967445678710938,-0.9472026824951172,0.02106323242189429,0.0279220581054955,-0.07817993164069731,0,0,0.0032554321289062216,None,None,None,None
cf4,6947.32,0.7975941162109376,0.7406396484375,0.25342127990722657,-4.270329475402832,0.013087463378919886,0.003088378906251943,-0.0660411834717396,0,-0.024856049719414346,0.04657872009277342,None,None,None,None
cf1,6947.36,0.7929783325195313,-0.7878150634765625,0.2535188903808594,2.303678035736084,-0.003451538085938818,0.0042861938476618355,-0.055689239502002684,-0.0010764701271681434,0.023815942061354525,0.04648110961914059,None,None,None,None
cf2,6947.36,-0.7231384887695312,-0.7687432250976562,0.5928468627929687,-0.30333077907562256,-0.01571044921876471,0.006269836425787529,-0.029344177246122857,0,0.0024339259512481744,0.007153137207031257,None,None,None,None
cf3,6947.36,-0.69581884765625,0.67336669921875,0.5935172119140625,-0.9472026824951172,0.017294311523454363,0.03652648925784588,-0.08068389892585526,0,0,0.0064827880859374964,None,None,None,None
cf4,6947.36,0.7981458129882812,0.7404507446289063,0.250637451171875,-4.199244976043701,0.01379241943360454,-0.004722595214847046,-0.06959571838385194,0,-0.024681347453582844,0.049362548828124964,None,None,None,None
cf1,6947.4,0.7928485107421875,-0.7876292724609375,0.2516791839599609,2.349909782409668,-0.0032455444335973234,0.004644775390629024,-0.04599266052250381,-0.0006951636052554793,0.02351086541324195,0.04832081604003907,None,None,None,None
cf2,6947.4,-0.7237540893554688,-0.7685909423828126,0.59180517578125,-0.39648905396461487,-0.015390014648453252,0.003807067871095658,-0.02604217529299106,0,0.0021493147904530756,0.008194824218749952,None,None,None,None
cf3,6947.4,-0.6951541748046876,0.675157958984375,0.5904105224609375,-1.0057978630065918,0.016616821289076725,0.044781494140665665,-0.07766723632819508,0,0,0.009589477539062474,None,None,None,None
cf4,6947.4,0.7987557983398438,0.7400548706054688,0.24782681274414062,-4.134965419769287,0.01524963378907728,-0.009896850585944925,-0.0702659606934241,0,-0.024135558216035954,0.05217318725585937,None,None,None,None
cf1,6947.44,0.7926287231445313,-0.7873474731445312,0.2500398406982422,2.40360164642334,-0.005494689941412114,0.007044982910162946,-0.040983581543005215,-3.0426047155866322e-05,0.0230355227386479,0.04996015930175779,None,None,None,None
cf2,6947.44,-0.7245213623046876,-0.7685540161132812,0.59089990234375,-0.39648905396461487,-0.01918182373048606,0.000923156738284199,-0.022631835937521095,0,0.002117263718104995,0.009100097656249972,None,None,None,None
cf3,6947.44,-0.6946575317382813,0.6771119995117187,0.5873889770507813,-1.108755350112915,0.012416076660168498,0.04885101318363729,-0.07553863525397374,0,0,0.012611022949218675,None,None,None,None
cf4,6947.44,0.7993930053710938,0.7394937133789062,0.24529450988769533,-4.134965419769287,0.015930175781265266,-0.01402893066407728,-0.06330757141118983,0,-0.02324466746312823,0.05470549011230466,None,None,None,None
cf1,6947.48,0.7924366455078126,-0.78695556640625,0.24864773559570313,2.4456584453582764,-0.0048019409179716295,0.009797668457040583,-0.034802627563508284,0,0.022348578354642105,0.051352264404296855,None,None,None,None
cf2,6947.48,-0.7253182983398437,-0.768646484375,0.5901367797851562,-0.4953266382217407,-0.01992340087892266,-0.00231170654297274,-0.019078063964862033,0,0.002378486856525251,0.00986322021484376,None,None,None,None
cf3,6947.48,-0.6942861938476562,0.6792699584960937,0.58446826171875,-1.257982611656189,0.009283447265634575,0.05394897460942371,-0.07301788330084914,0,0,0.015531738281249985,None,None,None,None
cf4,6947.48,0.8001632080078125,0.738777099609375,0.24308447265625,-4.107151985168457,0.0192550659179844,-0.01791534423829752,-0.05525093078618358,-0.0019765021680575624,-0.021953812662199715,0.056915527343749994,None,None,None,None
cf1,6947.5199999999995,0.7922401123046875,-0.7865945434570313,0.24760260009765625,2.541527509689331,-0.004913330078131245,0.009025573730475515,-0.026128387451195865,0,0.021688938432509845,0.05239739990234374,None,None,None,None
cf2,6947.5199999999995,-0.7261574096679687,-0.768869140625,0.5893816528320313,-0.5660650730133057,-0.020977783203143457,-0.005566406250003886,-0.018878173828141238,0,0.002959250188504203,0.010618347167968722,None,None,None,None
cf3,6947.5199999999995,-0.6939765625000001,0.6813795166015625,0.5815360717773438,-1.2743953466415405,0.007740783691411003,0.052738952636766874,-0.07330474853522179,0,0,0.01846392822265619,None,None,None,None
cf4,6947.5199999999995,0.8008335571289062,0.737900146484375,0.24100608825683595,-4.069947719573975,0.016758728027359258,-0.02192382812502054,-0.051959609985398406,-0.004326718560269501,-0.020162917636819305,0.05899391174316404,None,None,None,None
cf1,6947.5599999999995,0.7919976806640625,-0.7862012939453125,0.2467323913574219,2.541527509689331,-0.006060791015630135,0.0098312377929794,-0.021755218505878717,0,0.020933299269997756,0.053267608642578096,None,None,None,None
cf2,6947.5599999999995,-0.7268905029296875,-0.7691546630859375,0.5887601928710937,-0.5832516551017761,-0.01832733154298606,-0.007138061523443815,-0.015536499023452697,0,0.0037094274823424906,0.011239807128906265,None,None,None,None
cf3,6947.5599999999995,-0.6936668090820313,0.6834979858398438,0.57859912109375,-1.2743953466415405,0.007743835449226903,0.05296173095708055,-0.07342376708991144,0,0,0.021400878906249976,None,None,None,None
cf4,6947.5599999999995,0.8015249633789062,0.7368644409179688,0.23932156372070312,-4.044565677642822,0.017285156250014987,-0.02589263916017849,-0.04211311340335894,-0.007045982652390909,-0.017701084320891,0.060678436279296866,None,None,None,None
cf1,6947.599999999999,0.791826904296875,-0.7857345581054688,0.24601672363281252,2.6273701190948486,-0.004269409179692427,0.011668395996102875,-0.017891693115250663,0,0.020004013989092226,0.05398327636718747,None,None,None,None
cf2,6947.599999999999,-0.7276672973632813,-0.7695491943359375,0.5881464843750001,-0.6028223633766174,-0.01941986083986259,-0.009863281250008881,-0.015342712402355373,0,0.004768168097309039,0.011853515624999922,None,None,None,None
cf3,6947.599999999999,-0.6934528808593751,0.6854684448242188,0.5757069091796875,-1.3382817506790161,0.005348205566409893,0.04926147460941927,-0.07230529785162891,0,0,0.024293090820312502,None,None,None,None
cf4,6947.599999999999,0.8022245483398438,0.735902099609375,0.23804534912109376,-4.023046970367432,0.017489624023455472,-0.024058532714865365,-0.031905364990263016,-0.009956062337915727,-0.014914833941586308,0.061954650878906226,None,None,None,None
cf1,6947.639999999999,0.7917608642578126,-0.7852476196289062,0.24550234985351563,2.6824424266815186,-0.0016510009765617368,0.012173461914075059,-0.012859344482433931,0,0.019004711168031874,0.05449765014648436,None,None,None,None
cf2,6947.639999999999,-0.728265380859375,-0.7700576171875,0.5876063842773438,-0.6028223633766174,-0.014952087402355927,-0.01271057128907395,-0.013502502441418774,0,0.006121140954885339,0.012393615722656182,None,None,None,None
cf3,6947.639999999999,-0.6932626953125001,0.6873712768554687,0.5726246337890625,-1.435486912727356,0.0047546386718793025,0.047570800781292465,-0.07705688476569508,0,0,0.027375366210937502,None,None,None,None
cf4,6947.639999999999,0.8028804321289063,0.7348192138671875,0.23692071533203127,-4.023046970367432,0.016397094726576168,-0.02707214355471241,-0.028115844726587964,-0.012822681293715341,-0.011274420960496747,0.06307928466796872,None,None,None,None
cf1,6947.679999999999,0.791687744140625,-0.7847267456054687,0.24510069274902344,2.744863271713257,-0.001828002929689651,0.01302185058594881,-0.010041427612313943,0,0.017873834927744824,0.05489930725097655,None,None,None,None
cf2,6947.679999999999,-0.728795166015625,-0.770586181640625,0.5871795654296875,-0.6503556966781616,-0.01324462890626249,-0.013214111328136796,-0.010670471191416554,0,0.007548972157164949,0.012820434570312456,None,None,None,None
cf3,6947.679999999999,-0.6931248779296875,0.6891484375,0.5696983642578125,-1.4247450828552246,0.0034454345703181207,0.044429016113321944,-0.07315673828131578,0,0,0.03030163574218747,None,None,None,None
cf4,6947.679999999999,0.8035158081054687,0.7338941650390625,0.236090576171875,-4.021094799041748,0.015884399414076725,-0.023126220703147342,-0.020753479003925296,-0.01525237732403383,-0.007714990600781316,0.06390942382812498,None,None,None,None
cf1,6947.719999999999,0.7916417846679688,-0.784163330078125,0.24478167724609376,2.744863271713257,-0.0011489868164082275,0.014085388183606206,-0.007975387573249152,0,0.01657674536627215,0.05521832275390623,None,None,None,None
cf2,6947.719999999999,-0.7293035888671875,-0.77116650390625,0.5868773193359376,-0.7073357701301575,-0.01271057128907395,-0.014508056640637906,-0.0075561523437558285,0,0.009129454502090649,0.013122680664062414,None,None,None,None
cf3,6947.719999999999,-0.6930674438476563,0.6906856689453125,0.5668935546875,-1.4080075025558472,0.0014358520507808683,0.038430786132846985,-0.07012023925787585,0,0,0.033106445312499955,None,None,None,None
cf4,6947.719999999999,0.8040759887695312,0.7329894409179688,0.2355218963623047,-3.993305206298828,0.014004516601575059,-0.022618103027362033,-0.014216995239270832,-0.017071742513979672,-0.004161171156435771,0.0644781036376953,None,None,None,None
cf1,6947.759999999999,0.7916297607421875,-0.7835607299804688,0.2445626983642578,2.822939157485962,-0.000300598144531701,0.015065002441419329,-0.005474472045903633,0,0.01508951402898564,0.055437301635742176,None,None,None,None
cf2,6947.759999999999,-0.7297203979492187,-0.7717276000976563,0.5867664184570313,-0.7573741674423218,-0.010420227050790305,-0.014027404785170717,-0.0027725219726601703,0,0.010649210548442168,0.01323358154296872,None,None,None,None
cf3,6947.759999999999,-0.6929389038085938,0.692079345703125,0.5643313598632813,-1.4080075025558472,0.0032135009765650673,0.03484191894534532,-0.06405487060552603,0,0,0.035668640136718666,None,None,None,None
cf4,6947.759999999999,0.8045689086914063,0.7321556396484376,0.23511982727050781,-3.936049222946167,0.01232299804688763,-0.020845031738300296,-0.010051727294931156,-0.018342485455230418,-0.0009896255358543891,0.06488017272949217,None,None,None,None
cf1,6947.799999999999,0.7916693725585938,-0.7830255126953125,0.24437538146972657,2.8505640029907227,0.0009902954101590603,0.013380432128918774,-0.004682922363285448,0,0.013672013895531139,0.05562461853027342,None,None,None,None
cf2,6947.799999999999,-0.7300023803710938,-0.7722407836914063,0.5866224975585937,-0.8303038477897644,-0.007049560546882633,-0.012829589843760824,-0.003598022460941039,0,0.011998622312769653,0.01337750244140623,None,None,None,None
cf3,6947.799999999999,-0.69288623046875,0.693359619140625,0.5620333251953125,-1.4173767566680908,0.0013168334960967684,0.032006835937529975,-0.05745086669927353,0,0,0.03796667480468752,None,None,None,None
cf4,6947.799999999999,0.8049317626953125,0.7314765014648438,0.234922119140625,-3.8602848052978516,0.009071350097664056,-0.016978454589859814,-0.004942703247074936,-0.01908860079142402,0,0.06507788085937499,None,None,None,None
cf1,6947.839999999999,0.7917872314453125,-0.7824683227539063,0.2441707305908203,2.8965001106262207,0.002946472167969409,0.013929748535167387,-0.005116271972661003,0,0.012089077967400485,0.05582926940917968,None,None,None,None
cf2,6947.839999999999,-0.7302350463867188,-0.7727567749023437,0.58660791015625,-0.8303038477897644,-0.005816650390630135,-0.01289978027344881,-0.00036468505859343773,0,0.013319602144052648,0.013392089843749955,None,None,None,None
cf3,6947.839999999999,-0.6927589721679688,0.6943744506835937,0.5599108276367187,-1.456791639328003,0.0031814575195328113,0.02537078857423967,-0.053062438964891455,0,0,0.040089172363281245,None,None,None,None
cf4,6947.839999999999,0.8052462158203125,0.7309284667968751,0.23486204528808594,-3.8602848052978516,0.007861328125007217,-0.013700866699230234,-0.0015018463134778895,-0.019630527197972262,0,0.06513795471191405,None,None,None,None
cf1,6947.88,0.791919189453125,-0.7818944702148438,0.2440628662109375,2.929654836654663,0.0032989501952408904,0.014346313476249418,-0.0026966094970112624,0,0.0102677592961738,0.05593713378906248,None,None,None,None
cf2,6947.88,-0.7304357299804688,-0.7732372436523438,0.5865430908203125,-0.9054617881774902,-0.005017089843641198,-0.012011718749739653,-0.001620483398401973,0,0.014523861351850131,0.013456909179687448,None,None,None,None
cf3,6947.88,-0.6926583251953126,0.695216552734375,0.5581162719726562,-1.4927514791488647,0.0025161743163504614,0.02105255126907245,-0.04486389160058328,0,0,0.04188372802734375,None,None,None,None
cf4,6947.88,0.8054337768554688,0.7305313110351562,0.23487701416015624,-3.770429849624634,0.004689025878804387,-0.0099288940427542,0.0003742218017495552,-0.019896322777713697,0,0.06512298583984374,None,None,None,None
cf1,6947.92,0.7921841430664063,-0.7813073120117188,0.24398223876953126,2.914586067199707,0.006623840332037808,0.014678955078139572,-0.00201568603515795,0,0.008180799622448135,0.05601776123046873,None,None,None,None
cf2,6947.92,-0.7305363159179687,-0.7736922607421876,0.586447265625,-0.9715057611465454,-0.0025146484375011104,-0.011375427246103985,-0.0023956298828142347,0,0.0155969887130901,0.01355273437499993,None,None,None,None
cf3,6947.92,-0.6925874633789063,0.6959894409179688,0.5567030639648438,-1.5115976333618164,0.00177154541015795,0.019322204589862033,-0.03533020019534255,0,0,0.043296936035156164,None,None,None,None
cf4,6947.92,0.8055125122070312,0.7302427368164063,0.2350694122314453,-3.6570091247558594,0.001968383789062847,-0.007214355468755274,0.004809951782231082,-0.01995517450591325,0,0.06493058776855468,None,None,None,None
cf1,6947.96,0.7924418334960938,-0.7806988525390626,0.2439549560546875,2.914586067199707,0.0064422607421929816,0.015211486816418774,-0.000682067871094548,0,0.005509762334194527,0.056045043945312484,None,None,None,None
cf2,6947.96,-0.7305846557617187,-0.7740684814453125,0.5862993774414063,-1.0360724925994873,-0.0012084960937502776,-0.0094055175781318,-0.0036972045898481564,0,0.016447215071156644,0.013700622558593722,None,None,None,None
cf3,6947.96,-0.6925108642578125,0.6967103881835938,0.555462890625,-1.5115976333618164,0.001914978027347046,0.018023681640641238,-0.03100433349612397,0,0,0.044537109374999995,None,None,None,None
cf4,6947.96,0.8054652099609375,0.7300672607421875,0.23528865051269532,-3.542249917984009,-0.0011825561523442704,-0.00438690185547274,0.005480957031255135,-0.019792124807089584,0,0.06471134948730467,None,None,None,None
cf1,6948.0,0.7926956176757812,-0.7801844482421875,0.2439837341308594,2.913806200027466,0.006344604492192427,0.012860107421889293,0.0007194519042976903,-0.0005963752607691929,0.0025082841849998665,0.0560162658691406,None,None,None,None
cf2,6948.0,-0.7305914306640625,-0.7743865966796876,0.5862025146484375,-1.1038200855255127,-0.00016937255859510308,-0.007952880859384299,-0.0024215698242202417,0,0.017133725631021186,0.013797485351562444,None,None,None,None
cf3,6948.0,-0.6920508422851562,0.6966063842773438,0.5536720581054687,-1.466626763343811,0.01150054931641711,-0.002600097656251943,-0.0447708129883225,0,0,0.046327941894531266,None,None,None,None
cf4,6948.0,0.8053383178710938,0.730035400390625,0.23555319213867187,-3.432854175567627,-0.0031723022460962134,-0.0007965087890645123,0.0066135406494199,-0.01952003293447494,0,0.06444680786132811,None,None,None,None
cf1,6948.04,0.7930045166015626,-0.7797180786132812,0.2440877685546875,2.871817111968994,0.007722473144540583,0.011659240722666277,0.002600860595705224,-0.0029099859613240923,0,0.05591223144531249,None,None,None,None
cf2,6948.04,-0.7304944458007813,-0.7746251831054688,0.5860656127929688,-1.1038200855255127,0.0024246215820333664,-0.005964660644536142,-0.0034225463867224625,0,0.01758380198015404,0.013934387207031218,None,None,None,None
cf3,6948.04,-0.6919664306640625,0.6970445556640625,0.5529924926757812,-1.4431252479553223,0.002110290527345381,0.010954284667978846,-0.016989135742202975,0,0,0.04700750732421877,None,None,None,None
cf4,6948.04,0.8050786743164062,0.7300671997070313,0.23591633605957033,-3.432854175567627,-0.006491088867194647,0.00079498291015795,0.009078598022469533,-0.018993030555426622,0,0.06408366394042966,None,None,None,None
cf1,6948.08,0.7933036499023438,-0.7792192382812501,0.2442368621826172,2.7942659854888916,0.007478332519537808,0.01247100830079086,0.003727340698245822,-0.00440858511761634,0,0.05576313781738279,None,None,None,None
cf2,6948.08,-0.7303941040039063,-0.7748289794921875,0.5859772338867187,-1.1148524284362793,0.002508544921877637,-0.005094909667973295,-0.002209472656252498,0,0.017952758416340277,0.014022766113281238,None,None,None,None
cf3,6948.08,-0.6922072143554687,0.697884765625,0.5533869018554688,-1.4273921251296997,-0.006019592285161281,0.021005249023456025,0.009860229492198534,0,0,0.046613098144531184,None,None,None,None
cf4,6948.08,0.8047488403320313,0.7301795043945313,0.23626075744628908,-3.341392993927002,-0.008245849609380412,0.0028076171875027756,0.008610534667976625,-0.01833544441360616,0,0.06373924255371091,None,None,None,None
cf1,6948.12,0.793625,-0.778799560546875,0.24438293457031252,2.7011489868164062,0.008033752441412668,0.010491943359384854,0.0036518096923862558,-0.005747062039615762,0,0.05561706542968747,None,None,None,None
cf2,6948.12,-0.73015576171875,-0.7750626220703125,0.58581396484375,-1.1199311017990112,0.0059585571289126685,-0.00584106445312958,-0.004081726074221352,0,0.018301886692193757,0.014186035156249943,None,None,None,None
cf3,6948.12,-0.692171630859375,0.6981200561523437,0.5529617309570313,-1.4478493928909302,0.000889587402342605,0.005882263183598434,-0.0106292724609477,0,0,0.047038269042968706,None,None,None,None
cf4,6948.12,0.8043531494140626,0.7303798217773437,0.23660882568359376,-3.257438898086548,-0.009892272949228013,0.0050079345703159,0.008701705932624985,-0.01754528952708385,0,0.06339117431640623,None,None,None,None
cf1,6948.16,0.7939973754882813,-0.7783895263671875,0.24461390686035156,2.7011489868164062,0.009309387207040583,0.010250854492197977,0.005774307250981359,-0.007114655823134499,0,0.05538609313964843,None,None,None,None
cf2,6948.16,-0.7298921508789062,-0.7751845703125,0.5856790771484375,-1.130918025970459,0.0065902709960989885,-0.0030487060546896512,-0.0033721923828170103,0,0.018406448722373382,0.014320922851562501,None,None,None,None
cf3,6948.16,-0.6921743774414063,0.6983178100585937,0.5524210205078125,-1.4478493928909302,-6.866455078142347e-05,0.004943847656254163,-0.013517761230481621,0,0,0.04757897949218748,None,None,None,None
cf4,6948.16,0.8038911132812501,0.730625,0.23696234130859375,-3.163672924041748,-0.011550903320322561,0.006129455566411558,0.008837890625007911,-0.016579989857233888,0,0.06303765869140623,None,None,None,None
cf1,6948.2,0.7943248291015625,-0.7780385131835937,0.24484048461914062,2.5739493370056152,0.008186340332038362,0.008775329589852042,0.005664443969731776,-0.008177990220259479,0,0.055159515380859364,None,None,None,None
cf2,6948.2,-0.7296099243164063,-0.7753056640625,0.5856033325195312,-1.130918025970459,0.007055664062506106,-0.0030273437500033308,-0.00189361572265795,0,0.018499007095387626,0.01439666748046875,None,None,None,None
cf3,6948.2,-0.6921724853515625,0.6985330810546875,0.551651611328125,-1.5489463806152344,4.7302246095103086e-05,0.005381774902348711,-0.019235229492204638,0,0,0.048348388671874964,None,None,None,None
cf4,6948.2,0.8033770141601563,0.730917724609375,0.2373426208496094,-3.0728681087493896,-0.012852478027356482,0.007318115234382078,0.009506988525399454,-0.015441873201858348,0,0.0626573791503906,None,None,None,None
cf1,6948.24,0.7947152709960937,-0.777754150390625,0.24508192443847657,2.4468698501586914,0.00976104736328864,0.007109069824224682,0.006035995483404049,-0.009428625326297723,0,0.05491807556152342,None,None,None,None
cf2,6948.24,-0.729339599609375,-0.7753804321289063,0.5854604492187501,-1.092657446861267,0.006758117675787529,-0.0018692016601585051,-0.003572082519532256,0,0.018505469600022563,0.01453955078124991,None,None,None,None
cf3,6948.24,-0.6921721801757813,0.6986728515625,0.5506934204101562,-1.6895432472229004,7.6293945300356936e-06,0.0034942626953170103,-0.023954772949241337,0,0,0.049306579589843746,None,None,None,None
cf4,6948.24,0.8028299560546875,0.7312913208007813,0.23768154907226563,-3.0728681087493896,-0.013676452636730788,0.009339904785166277,0.008473205566413778,-0.014144118118595627,0,0.06231845092773436,None,None,None,None
cf1,6948.28,0.7950672607421875,-0.7774888916015625,0.24537255859375,2.295715808868408,0.008799743652351488,0.006631469726567843,0.007265853881842729,-0.01045195513885499,0,0.05462744140624998,None,None,None,None
cf2,6948.28,-0.7289495239257813,-0.7753701171875,0.5851663208007812,-1.0321824550628662,0.009751892089852042,0.00025787353515628467,-0.007353210449227458,0,0.018282012391436,0.014833679199218741,None,None,None,None
cf3,6948.28,-0.6922948608398438,0.6988309936523438,0.549656494140625,-1.7577954530715942,-0.0030670166015656225,0.003953552246097879,-0.025923156738304184,0,0,0.05034350585937497,None,None,None,None
cf4,6948.28,0.8023244018554687,0.731637939453125,0.23794952392578125,-2.9963598251342773,-0.012638854980482176,0.008665466308601764,0.006699371337896679,-0.01280402749451986,0,0.062050476074218736,None,None,None,None
cf1,6948.32,0.7953861083984375,-0.7772471923828125,0.24557754516601563,2.295715808868408,0.007971191406257494,0.006042480468756939,0.005124664306645014,-0.011314119654579345,0,0.05442245483398436,None,None,None,None
cf2,6948.32,-0.7286748046875,-0.7753772583007813,0.58494189453125,-0.9665679931640625,0.006867980957037808,-0.00017852783203170102,-0.005610656738285864,0,0.018155869294594416,0.015058105468749972,None,None,None,None
cf3,6948.32,-0.6923443603515625,0.6989638671875,0.5484169921875001,-1.7109054327011108,-0.001237487792969409,0.0033218383789087825,-0.030987548828151783,0,0,0.051583007812499915,None,None,None,None
cf4,6948.32,0.8018062744140625,0.7319351196289062,0.23825550842285156,-2.9031198024749756,-0.012953186035167387,0.007429504394536142,0.007649612426764725,-0.011230938193760032,-0.00025134625881899656,0.061744491577148425,None,None,None,None
cf1,6948.36,0.7957290649414063,-0.7770154418945313,0.24589964294433594,2.1510326862335205,0.008573913574227458,0.005793762207034476,0.00805244445801528,-0.012207587175298958,0,0.054100357055664045,None,None,None,None
cf2,6948.36,-0.7283941650390625,-0.7753150024414063,0.5847811889648438,-0.9077513813972473,0.007015991210943815,0.0015563964843770817,-0.0040176391601596155,0,0.017891203025637525,0.01521881103515621,None,None,None,None
cf3,6948.36,-0.69243798828125,0.699048095703125,0.5473280029296875,-1.7109054327011108,-0.002340698242189096,0.002105712890625694,-0.027224731445338105,0,0,0.05267199707031245,None,None,None,None
cf4,6948.36,0.801305419921875,0.7322857055664063,0.23846800231933593,-2.800530195236206,-0.012521362304699088,0.008764648437508881,0.005312347412114006,-0.009429893780461765,-0.0021464672868931776,0.06153199768066406,None,None,None,None
cf1,6948.4,0.7960231323242187,-0.7767952270507813,0.24613880920410156,2.0171990394592285,0.007351684570318121,0.005505371093755274,0.005979156494145708,-0.012916595483344706,0,0.053861190795898434,None,None,None,None
cf2,6948.4,-0.7281257934570312,-0.7752215576171875,0.5845692138671875,-0.8493738174438477,0.00670928955078864,0.0023361206054721847,-0.005299377441411003,0,0.01757296544864537,0.015430786132812457,None,None,None,None
cf3,6948.4,-0.6925294799804688,0.6991466064453126,0.5465404052734375,-1.659180760383606,-0.0022872924804705195,0.0024627685546918716,-0.019689941406268598,0,0,0.053459594726562476,None,None,None,None
cf4,6948.4,0.800814208984375,0.7326494750976562,0.23876889038085938,-2.7083609104156494,-0.012280273437509436,0.009094238281256939,0.007522201538093146,-0.007232069164605328,-0.004351113853461255,0.061231109619140606,None,None,None,None
cf1,6948.44,0.7962996826171875,-0.7765941772460938,0.2464249725341797,1.9280803203582764,0.0069137573242263484,0.005026245117191871,0.007154083251959943,-0.01355882678163927,0,0.053575027465820296,None,None,None,None
cf2,6948.44,-0.7278727416992188,-0.7750652465820312,0.584349853515625,-0.8493738174438477,0.0063262939453164555,0.003907775878909338,-0.005484008789068953,0,0.017138735463181957,0.015650146484375016,None,None,None,None
cf3,6948.44,-0.6926988525390625,0.6992959594726562,0.545946044921875,-1.635851263999939,-0.004234313964847046,0.003733825683594548,-0.014859008789075059,0,0,0.05405395507812494,None,None,None,None
cf4,6948.44,0.8003717041015626,0.7329666748046875,0.23910435485839845,-2.618100166320801,-0.011062622070322561,0.00792999267578864,0.008386611938484412,-0.0048341548547096705,-0.0063104174135943936,0.060895645141601534,None,None,None,None
cf1,6948.48,0.7965220336914063,-0.7764459838867188,0.24672805786132812,1.8269950151443481,0.00555877685547385,0.003704833984378192,0.00757713317871759,-0.014066818299832782,0,0.05327194213867187,None,None,None,None
cf2,6948.48,-0.7276815185546875,-0.7749248657226563,0.58417236328125,-0.7978015542030334,0.004780578613285309,0.0035095214843770817,-0.004437255859378192,0,0.016766794277759775,0.015827636718749982,None,None,None,None
cf3,6948.48,-0.6928213500976562,0.6993817138671875,0.5455968627929687,-1.6394678354263306,-0.0030624389648459356,0.002143859863284199,-0.008729553222666277,0,0,0.05440313720703127,None,None,None,None
cf4,6948.48,0.7999702758789062,0.733190673828125,0.23949691772460938,-2.618100166320801,-0.01003570556641711,0.005599975585942704,0.009814071655281963,-0.0024875514816645244,-0.0075986424863126786,0.06050308227539061,None,None,None,None
cf1,6948.5199999999995,0.7967569580078125,-0.7763043212890626,0.2471524658203125,1.7223742008209229,0.0058731079101618355,0.0035415649414093377,0.010610198974619142,-0.014597980827753041,0,0.05284753417968749,None,None,None,None
cf2,6948.5199999999995,-0.7274729003906251,-0.7747733764648438,0.5840249633789063,-0.770025908946991,0.005215454101566733,0.0037872314453159,-0.003684997558595658,0,0.016365043680952814,0.015975036621093675,None,None,None,None
cf3,6948.5199999999995,-0.6930889892578125,0.6995682373046875,0.5455816650390625,-1.6639769077301025,-0.0066909790039126685,0.004663085937504996,-0.00037994384765628467,0,0,0.05441833496093751,None,None,None,None
cf4,6948.5199999999995,0.7996028442382813,0.7334103393554687,0.23995701599121094,-2.5216848850250244,-0.009185791015631245,0.0054916381835989885,0.011502456665049619,-0.00033935161190052406,-0.008604249794631176,0.060042984008789047,None,None,None,None
cf1,6948.5599999999995,0.7969779663085937,-0.7762037963867188,0.24766754150390627,1.7223742008209229,0.005525207519535032,0.0025131225585973234,0.012876892089855927,-0.015106864145277867,0,0.05233245849609372,None,None,None,None
cf2,6948.5599999999995,-0.7273528442382813,-0.7746591186523437,0.5839935302734375,-0.7728770971298218,0.0030014038085973234,0.0028564453125044407,-0.0007858276367213521,0,0.016079487386455784,0.0160064697265625,None,None,None,None
cf3,6948.5599999999995,-0.6933272705078125,0.6997444458007812,0.5457024536132813,-1.6639769077301025,-0.005957031250006106,0.004405212402345936,0.003019714355473295,0,0,0.05429754638671869,None,None,None,None
cf4,6948.5599999999995,0.7992971191406251,0.7335596923828125,0.24042333984375,-2.4434163570404053,-0.007643127441413223,0.0037338256835973234,0.011658096313487049,0,-0.009150552823240739,0.05957666015624999,None,None,None,None
cf1,6948.599999999999,0.79721240234375,-0.7760957641601562,0.2481632537841797,1.6804579496383667,0.005860900878912114,0.0027008056640656225,0.012392807006846892,-0.015630629133322874,0,0.051836746215820295,None,None,None,None
cf2,6948.599999999999,-0.7272468872070312,-0.7745195922851562,0.5840031127929688,-0.7615806460380554,0.002648925781253608,0.003488159179690761,0.0002395629882830888,0,0.015748942142590074,0.015996887207031185,None,None,None,None
cf3,6948.599999999999,-0.6936585083007812,0.6998709106445312,0.5458970336914063,-1.7781707048416138,-0.008280944824225794,0.003161621093753053,0.00486450195312958,0,0,0.05410296630859368,None,None,None,None
cf4,6948.599999999999,0.7990444946289063,0.7336402587890625,0.24097677612304688,-2.388991355895996,-0.00631561279297607,0.0020141601562513878,0.013835906982434625,0,-0.00936394111218158,0.05902322387695311,None,None,None,None
cf1,6948.639999999999,0.7973737182617188,-0.7759825439453125,0.24867356872558594,1.626610279083252,0.0040328979492224625,0.002830505371095658,0.012757873535167665,-0.01595517810172506,0,0.05132643127441405,None,None,None,None
cf2,6948.639999999999,-0.7271964111328125,-0.7744207763671875,0.5840681762695312,-0.7615806460380554,0.0012619018554688541,0.0024703979492191317,0.0016265869140622917,0,0.015525382152055685,0.015931823730468753,None,None,None,None
cf3,6948.639999999999,-0.6939376831054688,0.7000438232421875,0.546172119140625,-1.84840726852417,-0.006979370117194647,0.004322814941411003,0.006877136230474405,0,0,0.053827880859374955,None,None,None,None
cf4,6948.639999999999,0.7988523559570313,0.7336819458007813,0.24158792114257813,-2.331939697265625,-0.004803466796878192,0.0010421752929710745,0.015278625488295023,0,-0.009420367867722395,0.05841207885742186,None,None,None,None
cf1,6948.679999999999,0.7974981689453126,-0.7758875122070312,0.24920745849609374,1.6055395603179932,0.003111267089847601,0.0023757934570344764,0.013347244262707291,-0.016196142966984583,0,0.05079254150390625,None,None,None,None
cf2,6948.679999999999,-0.7271866455078125,-0.7743585205078125,0.5841240234375,-0.7471520304679871,0.000244140625,0.0015563964843770817,0.001396179199221352,0,0.015393966161135014,0.01587597656249995,None,None,None,None
cf3,6948.679999999999,-0.6942512817382812,0.700263916015625,0.5467158203125,-1.8235801458358765,-0.00783996582031812,0.005502319335942149,0.013592529296886518,0,0,0.05328417968749999,None,None,None,None
cf4,6948.679999999999,0.7987542724609376,0.7336812133789062,0.2422081298828125,-2.331939697265625,-0.0024520874023459356,-1.8310546875971444e-05,0.01550521850587372,0,-0.009358124607200192,0.05779187011718748,None,None,None,None
cf1,6948.719999999999,0.7976337280273438,-0.7757794189453125,0.24975067138671875,1.5720902681350708,0.003388977050783644,0.002702331542969409,0.01358032226563749,-0.016451708474136524,0,0.05024932861328124,None,None,None,None
cf2,6948.719999999999,-0.727163818359375,-0.7743519897460938,0.5841275024414062,-0.7011786699295044,0.0005706787109377081,0.00016326904296885407,8.697509765461936e-05,0,0.015370607856109563,0.015872497558593768,None,None,None,None
